stop_id,stop_name,FALSE,TRUE,over_2,under_2,total,pct_over_2,stop_lat,stop_lon,ons,offs,Project.Planning
NJT27947,BROAD ST AT CHERRY ST,270,NA,0,270,270,0,NA,NA,NA,NA,NA
NJT27949,MARKET ST AT 7TH ST,251,NA,0,251,251,0,NA,NA,NA,NA,NA
NJT27950,MARKET ST AT 8TH ST,292,NA,0,292,292,0,NA,NA,NA,NA,NA
NJT27953,MARKET ST AT 11TH ST,292,NA,0,292,292,0,NA,NA,NA,NA,NA
SEPTA1006,Frankford Av & Princeton Av,153,NA,0,153,153,0,40.034845,-75.044664,198.66754266545286,53.28534960481554,NA
SEPTA1007,Frankford Av & Knorr St,170,NA,0,170,170,0,40.032383,-75.050954,131.58062852180498,116.1101151514464,NA
SEPTA10272,Market St & 18th St,613,NA,0,613,613,0,39.953119,-75.170173,321.0780997758532,911.9224230632277,NA
SEPTA10275,Market St & 19th St,443,NA,0,443,443,0,39.953319,-75.17172,254.9681039209414,480.40949141168517,NA
SEPTA10283,Market St & 23rd St,274,NA,0,274,274,0,39.95409,-75.177929,120.66873419837816,133.5534431627311,NA
SEPTA107,Arch St & 22nd St,80,NA,0,80,80,0,39.95605,-75.176079,131.66218418544332,74.28221187592531,NA
SEPTA1081,Frankford Av & Unruh Av,172,NA,0,172,172,0,40.031871,-75.05292,104.70832917512483,43.06885666792788,NA
SEPTA1106,Frankford Av & Magee Av,160,NA,0,160,160,0,40.03069,-75.054841,149.42914944103023,69.69034347145802,NA
SEPTA11128,Ogontz Av & Godfrey Av,96,NA,0,96,96,0,40.048567,-75.150896,121.93155780452885,54.52211242318856,NA
SEPTA11138,Ogontz Av & Washington Ln,104,NA,0,104,104,0,40.068867,-75.156932,82.40732566837568,11.842604668941727,NA
SEPTA1138,Frankford Av & Levick St,158,NA,0,158,158,0,40.028593,-75.057878,170.17825398715487,71.69024876911874,NA
SEPTA1145,Frankford Av & Hawthorne St,169,NA,0,169,169,0,40.027631,-75.061855,109.10145103864143,61.969283069012164,NA
SEPTA1179,Germantown Av & Lehigh Av,107,NA,0,107,107,0,39.993198,-75.147956,155.16817904317907,299.9429459429459,NA
SEPTA1180,12th St & Girard Av,114,NA,0,114,114,0,39.971126,-75.155792,99.73727938727937,204.36925019425016,NA
SEPTA1183,11th St & Washington Av,109,NA,0,109,109,0,39.937036,-75.161436,122.43424908424909,58.50238095238094,NA
SEPTA1189,Germantown Av & Butler St,116,NA,0,116,116,0,40.010796,-75.151291,122.06388627712155,46.55712179976886,NA
SEPTA1206,19th St & Girard Av,108,NA,0,108,108,0,39.972543,-75.167528,98.98737022969861,190.61747646591593,NA
SEPTA12274,Ridge Av & Green Ln,130,NA,0,130,130,0,40.03411,-75.215822,130.01150571994225,168.79715782153863,NA
SEPTA12307,Ridge Av & Master St,184,NA,0,184,184,0,39.975848,-75.168709,115.889505025466,68.27938097022887,NA
SEPTA14919,19th St & Cecil B Moore Av,112,NA,0,112,112,0,39.979608,-75.165813,109.55925708100227,114.71356949473659,NA
SEPTA14920,20th St & Spring Garden St,173,NA,0,173,173,0,39.963491,-75.170904,92.34597138562076,99.9771068646067,NA
SEPTA14927,23rd St & Fairmount Av,141,NA,0,141,141,0,39.967454,-75.175437,110.7331768957811,32.99811298420209,NA
SEPTA14935,Arch St & 18th St,90,NA,0,90,90,0,39.955242,-75.169445,102.41856924506908,37.694418164561384,NA
SEPTA14996,Broad St & South St,202,NA,0,202,202,0,39.943524,-75.165426,113.03508684298158,51.07143083524662,NA
SEPTA15011,Allegheny Av & 25th St,85,NA,0,85,85,0,40.003841,-75.170793,146.79579010658918,17.064203522582748,NA
SEPTA15012,Allegheny Av & 24th St,93,NA,0,93,93,0,40.003641,-75.169187,111.96907833445094,16.04660050842408,NA
SEPTA15028,Allegheny Av & A St,97,NA,0,97,97,0,39.998255,-75.127517,116.09481343968156,87.00063222623342,NA
SEPTA15422,Cheltenham Av & 79th Av,164,NA,0,164,164,0,40.072802,-75.156042,153.17390306027755,53.99235093992817,NA
SEPTA15431,Roumfort Rd & Michener Av,103,NA,0,103,103,0,40.081022,-75.17747,120.41719103136334,30.560496016697876,NA
SEPTA15443,Germantown Av & Mt Airy Av,109,NA,0,109,109,0,40.060217,-75.191156,152.7674159174159,38.47232489732491,NA
SEPTA15444,Germantown Av & Mt Pleasant Av,115,NA,0,115,115,0,40.058429,-75.189542,135.17690087690085,55.12282717282717,NA
SEPTA15460,Germantown Av & Sedgwick St,116,NA,0,116,116,0,40.056971,-75.188211,121.16880619380622,48.38433788433788,NA
SEPTA15461,Thouron Av & Vernon Rd,114,NA,0,114,114,0,40.071473,-75.169106,89.60530460718759,23.08029937878333,NA
SEPTA15466,Germantown Av & Slocum St,119,NA,0,119,119,0,40.053308,-75.186236,105.83369963369961,25.358233433233433,NA
SEPTA15467,Germantown Av & Phil Ellena St,120,NA,0,120,120,0,40.051789,-75.185402,113.14779387279388,30.565878565878563,NA
SEPTA15479,Thouron Av & Phil Ellena St,117,NA,0,117,117,0,40.070174,-75.166816,98.82772613156916,25.27544170453769,NA
SEPTA15483,Thouron Av & Upsal St,114,NA,0,114,114,0,40.068705,-75.164337,101.73549917634813,36.81485212946071,NA
SEPTA15492,Germantown Av & Sharpnack St,120,NA,0,120,120,0,40.04927,-75.184015,99.83909701409702,22.148529248529247,NA
SEPTA15506,Vernon Rd & Stenton Av - FS,97,NA,0,97,97,0,40.065051,-75.175551,128.45756555571015,28.332203524510145,NA
SEPTA15516,Sprague St & Phil Ellena St,100,NA,0,100,100,0,40.058702,-75.178531,101.2334382725906,18.314799022281417,NA
SEPTA15518,Phil Ellena St & Chew Av,96,NA,0,96,96,0,40.055726,-75.181297,138.32203060881457,43.3675280497681,NA
SEPTA15520,Chew Av & Upsal St,91,NA,0,91,91,0,40.053587,-75.178111,151.39299871972165,29.41963623123115,NA
SEPTA15586,Chew Av & Locust Av,215,NA,0,215,215,0,40.044166,-75.162808,167.81495196273272,57.8602903150718,NA
SEPTA15587,Chew Av & Church Ln,208,NA,0,208,208,0,40.043297,-75.161404,193.5196425615668,124.18824726722836,NA
SEPTA15647,Germantown Av & Washington Ln,103,NA,0,103,103,0,40.043266,-75.180997,172.0346764346764,37.99422521922523,NA
SEPTA15649,Germantown Av & Walnut Ln,110,NA,0,110,110,0,40.040638,-75.178878,162.74600954600956,62.4954933954934,NA
SEPTA15660,Pulaski Av & Chelten Av - 2,106,NA,0,106,106,0,40.030404,-75.180368,94.21457918586403,6.421780485596275,NA
SEPTA15665,Chelten Av & Kenyon St,222,NA,0,222,222,0,40.036549,-75.173891,184.17256654164547,21.604469434074694,NA
SEPTA15668,Chelten Av & Morton St,199,NA,0,199,199,0,40.040486,-75.169869,112.33607177136588,39.80075163914174,NA
SEPTA15672,Chelten Av & Knox St,217,NA,0,217,217,0,40.032808,-75.177711,197.66602826997564,54.300512937355045,NA
SEPTA15697,Olney Av & Front St,216,NA,0,216,216,0,40.035236,-75.121545,156.18454409448208,497.8594267795058,NA
SEPTA15701,Germantown Av & Coulter St,107,NA,0,107,107,0,40.03316,-75.170746,135.98815628815626,39.125777000777,NA
SEPTA15705,Germantown Av & Manheim St,126,NA,0,126,126,0,40.03024,-75.165626,99.77509157509155,65.31804861804862,NA
SEPTA15706,Germantown Av & Seymour St,116,NA,0,116,116,0,40.029254,-75.163892,122.08317238317237,57.06607281607282,NA
SEPTA15707,Germantown Av & Logan St,118,NA,0,118,118,0,40.028341,-75.162382,136.18006438006438,67.61928904428905,NA
SEPTA15718,Germantown Av & Hunting Park Av,118,NA,0,118,118,0,40.016006,-75.154001,127.85306360306359,168.63845043845043,NA
SEPTA15776,Bridge St & Jackson St,165,NA,0,165,165,0,40.015869,-75.071371,112.04159451659451,11.461544011544012,NA
SEPTA15798,Olney Av & 11th St,225,NA,0,225,225,0,40.037867,-75.139564,92.20777848440072,76.34330755113508,NA
SEPTA15803,Bridge St & Darrah St,156,NA,0,156,156,0,40.022541,-75.076161,109.41780719280719,2.4410256410256417,NA
SEPTA15899,Olney Av & Mascher St,211,NA,0,211,211,0,40.035634,-75.123695,172.91251545020904,55.53451438825933,NA
SEPTA15907,Olney Av & 11th St,222,NA,0,222,222,0,40.037929,-75.13941,87.88449442896942,61.52876115890459,NA
SEPTA15913,Olney Av & Ogontz Av,209,NA,0,209,209,0,40.039041,-75.149798,130.04658788700192,538.6923321466942,NA
SEPTA15996,33rd St & Huntingdon St,136,NA,0,136,136,0,39.996186,-75.18532,88.7585100076598,58.542112906658296,NA
SEPTA16087,Germantown Av & Allegheny Av,116,NA,0,116,116,0,40.001097,-75.148292,101.6387334887335,216.85209790209788,NA
SEPTA16101,Germantown Av & Huntingdon St,121,NA,0,121,121,0,39.991601,-75.148376,83.90048562548562,108.53115495615495,NA
SEPTA16129,12th St & Race St,230,NA,0,230,230,0,39.955889,-75.15911,138.1674186924187,97.13700743700738,NA
SEPTA16212,Dauphin St & 29th St,136,NA,0,136,136,0,39.990963,-75.18015,157.64586318823936,30.69545859197562,NA
SEPTA16237,5th St & Spencer St,106,NA,0,106,106,0,40.044205,-75.128908,118.04730824730821,6.826370851370847,NA
SEPTA16247,5th St & Lindley Av,109,NA,0,109,109,0,40.028862,-75.132259,118.24528069969244,80.1791303467774,NA
SEPTA16253,5th St & Cayuga St,98,NA,0,98,98,0,40.018202,-75.134573,147.74207557148733,56.65389904213433,NA
SEPTA16257,5th St & Luzerne St,104,NA,0,104,104,0,40.012056,-75.135922,128.86640646934762,58.52260974319797,NA
SEPTA16497,Oregon Av & 6th St,299,NA,0,299,299,0,39.915243,-75.158083,197.91279814956283,22.15876623376623,NA
SEPTA16566,Pennsylvania Av & Spring Garden St - MBFS,218,NA,0,218,218,0,39.963689,-75.175745,91.2149898486613,36.55960868454275,NA
SEPTA16595,Old York Rd & Nedro Av,301,NA,0,301,301,0,40.042858,-75.144344,173.60179487955486,66.4587717342051,NA
SEPTA16711,Rising Sun Av & Hellerman St,104,NA,0,104,104,0,40.051169,-75.094195,81.44660268300511,28.73913339400579,NA
SEPTA16728,Rising Sun Av & Devereaux Av,100,NA,0,100,100,0,40.047198,-75.098033,93.02526611955713,48.436675870258775,NA
SEPTA16735,Rising Sun Av & Adams Av - MBNS,91,NA,0,91,91,0,40.039961,-75.108932,124.39859898860992,77.70238914099909,NA
SEPTA16843,11th St & Walnut St,242,NA,0,242,242,0,39.948579,-75.158913,111.87743139213728,391.11005905858843,NA
SEPTA16851,11th St & Spring Garden St,113,NA,0,113,113,0,39.961532,-75.1561,97.88790833349654,63.810316480904696,NA
SEPTA16865,11th St & Cecil B Moore Av,113,NA,0,113,113,0,39.977839,-75.152541,108.03140176816645,60.712414872708976,NA
SEPTA16876,Germantown Av & Somerset St,112,NA,0,112,112,0,39.994535,-75.147431,110.97874315227254,66.12743367743367,NA
SEPTA16881,Germantown Av & Hilton St,115,NA,0,115,115,0,40.001624,-75.148313,114.90674717439424,20.234360737301913,NA
SEPTA16894,Germantown Av & Windrim Av,120,NA,0,120,120,0,40.022719,-75.158881,104.28324869574868,72.02932622932623,NA
SEPTA16959,Olney Av & 2nd St,218,NA,0,218,218,0,40.035825,-75.125302,117.8933324421613,46.477582830279275,NA
SEPTA16964,Olney Av & 7th St,217,NA,0,217,217,0,40.036944,-75.134046,104.95541771227725,29.033273420680022,NA
SEPTA17085,Greene St & Walnut Ln - FS,114,NA,0,114,114,0,40.037243,-75.18168,96.05769092019094,47.63707542457542,NA
SEPTA17138,Broad St & Susquehanna Av,119,NA,0,119,119,0,39.986371,-75.156313,157.3842105263158,139.85764484053956,NA
SEPTA17165,Broad St & Ridge Av - FS,131,NA,0,131,131,0,39.966558,-75.160664,100.3304528074265,81.54808605137553,NA
SEPTA17170,Broad St & Race St,195,NA,0,195,195,0,39.956361,-75.162934,122.96531910174895,410.8364273347986,NA
SEPTA17174,Manheim St & Wayne Av,94,NA,0,94,94,0,40.026356,-75.169152,161.44897047397043,100.98424630924627,NA
SEPTA17188,Manheim St & Wissahickon Av,98,NA,0,98,98,0,40.020084,-75.174895,132.18633866133865,78.75953213453214,NA
SEPTA17200,Germantown Av & Walnut Ln,110,NA,0,110,110,0,40.040405,-75.178477,141.34222999222996,111.81467560217558,NA
SEPTA17268,Broad St & Ridge Av,129,NA,0,129,129,0,39.966254,-75.160417,119.72159938015203,83.87430471575209,NA
SEPTA17282,Broad St & Susquehanna Av,128,NA,0,128,128,0,39.986147,-75.156148,141.87722314235472,165.9266761747025,NA
SEPTA17283,Broad St & Dauphin St,135,NA,0,135,135,0,39.987762,-75.155799,92.66227668530301,66.74655162089371,NA
SEPTA17419,Erie Av & Elder St - FS,148,NA,0,148,148,0,40.009053,-75.149844,170.53060535096137,20.95595921106757,NA
SEPTA17425,Erie Av & Rising Sun Av,155,NA,0,155,155,0,40.007873,-75.14108,121.11136737359647,68.93576277953213,NA
SEPTA17697,Cottman Av & Rising Sun Av - FS,131,NA,0,131,131,0,40.061798,-75.084246,158.26772554930452,482.3181524615735,NA
SEPTA17855,11th St & Callowhill St,318,NA,0,318,318,0,39.958847,-75.156689,79.3671449465567,200.73842056636175,NA
SEPTA17948,Torresdale Av & Longshore Av,101,NA,0,101,101,0,40.026041,-75.043245,134.76697215323375,32.79392407987609,NA
SEPTA17953,Torresdale Av & Unruh Av,105,NA,0,105,105,0,40.024328,-75.046493,108.72029981542362,30.46994911263487,NA
SEPTA17973,Torresdale Av & Deveraux Av,108,NA,0,108,108,0,40.019607,-75.055667,96.23273137681032,37.168571366713785,NA
SEPTA17975,Torresdale Av & Comly St,115,NA,0,115,115,0,40.017735,-75.059282,85.36397138293422,31.37783536552886,NA
SEPTA17979,Torresdale Av & Van Kirk St,110,NA,0,110,110,0,40.016412,-75.06183,106.25434059834214,33.97702843681946,NA
SEPTA17987,Torresdale Av & Orthodox St,114,NA,0,114,114,0,40.010473,-75.079258,89.82554415828409,49.21748733292851,NA
SEPTA18016,Erie Av & L St,104,NA,0,104,104,0,40.005655,-75.103176,129.04383652123587,87.24980588297151,NA
SEPTA18036,Erie Av & Whitaker Av,115,NA,0,115,115,0,40.007277,-75.123272,91.92593618112193,114.3180196480506,NA
SEPTA18163,Erie Av & 19th St,221,NA,0,221,221,0,40.010216,-75.159271,121.36158890988612,79.08588813147638,NA
SEPTA18164,Erie Av & 18th St,223,NA,0,223,223,0,40.010016,-75.157712,98.63476881735394,59.30499154268504,NA
SEPTA18165,Erie Av & 17th St,220,NA,0,220,220,0,40.009816,-75.156129,124.99199422868152,89.80547149788634,NA
SEPTA18211,Erie Av & 16th St,310,NA,0,310,310,0,40.009687,-75.154321,77.30331120547841,61.4193741930584,NA
SEPTA18212,Erie Av & 17th St,246,NA,0,246,246,0,40.009905,-75.155868,82.01807130348152,100.93161442530639,NA
SEPTA18214,Erie Av & 19th St,300,NA,0,300,300,0,40.010314,-75.15901,123.57263841249907,207.76278939069186,NA
SEPTA18226,Manheim St & Wayne Av,122,NA,0,122,122,0,40.026097,-75.169164,121.09637119416531,167.93450520068166,NA
SEPTA18237,Greene St & Walnut Ln,111,NA,0,111,111,0,40.037386,-75.181668,166.24270810888456,85.79473769694357,NA
SEPTA18451,Market St & 16th St,604,NA,0,604,604,0,39.952738,-75.167045,408.8035212525637,1637.9132535587692,NA
SEPTA18470,Stenton Av & Tulpehocken St,96,NA,0,96,96,0,40.058251,-75.163323,142.882146121852,28.19746430040548,NA
SEPTA18473,Stenton Av & Haines St,115,NA,0,115,115,0,40.055787,-75.15904,91.737142922437,54.91012321012322,NA
SEPTA18494,7th St & Wolf St,111,NA,0,111,111,0,39.920359,-75.158665,120.78656523215346,21.39041040658688,NA
SEPTA18495,7th St & Jackson St,116,NA,0,116,116,0,39.921599,-75.158413,104.26596002037178,30.176967150496566,NA
SEPTA18500,7th St & Tasker St,101,NA,0,101,101,0,39.928904,-75.156779,154.5910969749205,62.71994247582482,NA
SEPTA18510,7th St & South St,101,NA,0,101,101,0,39.942107,-75.15386,136.14938460232577,58.65875774552246,NA
SEPTA18531,7th St & Berks St,202,NA,0,202,202,0,39.980226,-75.146259,100.53343143784319,89.7029824750413,NA
SEPTA19011,Frankford Av & Orthodox St,140,NA,0,140,140,0,40.014855,-75.085512,104,48,NA
SEPTA19014,Kensington Av & K St,129,NA,0,129,129,0,40.000487,-75.106308,100.78687505305152,66.40217299040829,NA
SEPTA19062,Stenton Av & Washington Ln - FS,112,NA,0,112,112,0,40.059711,-75.165636,131.54376490672402,308.9691049520459,NA
SEPTA19064,Old York Rd & Grange Av - FS,306,NA,0,306,306,0,40.041724,-75.144337,82.50617985252241,45.072716358597674,NA
SEPTA19542,Walnut St & 24th St - MBFS,289,NA,0,289,289,0,39.951326,-75.179615,85.54482168158638,36.15704360998479,NA
SEPTA20476,Castor Av & Saint Vincent St,68,NA,0,68,68,0,40.049471,-75.067869,112.95479755538577,10.743424288130171,NA
SEPTA20516,Lehigh Av & 5th St,68,NA,0,68,68,0,39.992198,-75.140056,90.90246155903394,100.92183183217463,NA
SEPTA20587,City Av & Belmont Av - FS,153,NA,0,153,153,0,40.004111,-75.22019,149,118,NA
SEPTA20599,Allegheny Av & 5th St,102,NA,0,102,102,0,39.999798,-75.138371,102.1697026940106,259.18536532800164,NA
SEPTA20601,Allegheny Av & 26th St,189,NA,0,189,189,0,40.00404,-75.172376,177.2457549225998,133.17607712834666,NA
SEPTA20644,Market St & 22nd St - FS,228,NA,0,228,228,0,39.953899,-75.176453,102.75357966050692,103.92001389849688,NA
SEPTA21200,Roosevelt Blvd & Grant Av - FS,203,NA,0,203,203,0,40.080991,-75.028078,82.98698658126949,380.5443733459483,NA
SEPTA21256,49th St & Woodland Av,308,NA,0,308,308,0,39.940866,-75.212759,159.49285714285713,272.3314484126984,NA
SEPTA21292,20th St & Ritner St,107,NA,0,107,107,0,39.921831,-75.179966,147.532116675558,8.078632967542156,NA
SEPTA21294,20th St & Jackson St,113,NA,0,113,113,0,39.924284,-75.17945,110.96150804753603,12.770016984423853,NA
SEPTA21296,20th St & McKean St,108,NA,0,108,108,0,39.926728,-75.178922,140.3224458491881,24.064801945947472,NA
SEPTA21297,20th St & Mifflin St,99,NA,0,99,99,0,39.927942,-75.178646,166.61044932237294,29.872555065895916,NA
SEPTA213,Chelten Av & Baynton St,231,NA,0,231,231,0,40.038722,-75.171649,203.02246999646377,83.38244800005636,NA
SEPTA21300,20th St & Tasker St,100,NA,0,100,100,0,39.931608,-75.177854,146.92926668510594,49.362974541599215,NA
SEPTA21301,20th St & Dickinson St,106,NA,0,106,106,0,39.932812,-75.177602,136.20336878581,20.79611143990271,NA
SEPTA21303,20th St & Wharton St,109,NA,0,109,109,0,39.935275,-75.177062,117.56727901457802,27.272480953848024,NA
SEPTA21304,20th St & Federal St,100,NA,0,100,100,0,39.937184,-75.176642,155.93454339071866,32.403115621764165,NA
SEPTA21306,20th St & Carpenter St,123,NA,0,123,123,0,39.940136,-75.175994,79.15753222725,15.944283598294751,NA
SEPTA21311,20th St & South St,124,NA,0,124,124,0,39.944731,-75.174974,78.49309639792574,51.187534800122144,NA
SEPTA21317,20th St & Market St,118,NA,0,118,118,0,39.953437,-75.173125,94.50287070459089,371.8468491017004,NA
SEPTA21357,Chestnut St & 31st St,210,NA,0,210,210,0,39.95348,-75.185359,109,114,NA
SEPTA21426,40th St & Walnut St,141,NA,0,141,141,0,39.954208,-75.202633,102,259,NA
SEPTA21449,34th St & Walnut St - FS,248,NA,0,248,248,0,39.952493,-75.192247,113.34316907808393,307.6389637071448,NA
SEPTA21530,Old York Rd & 66th Av,115,NA,0,115,115,0,40.05375,-75.141805,157.49841200919306,233.8607712816051,NA
SEPTA21606,Frankford Av & Harbison Av,174,NA,0,174,174,0,40.027419,-75.062589,88.04396299435001,114.86686332243606,NA
SEPTA21607,Frankford Av & Levick St,177,NA,0,177,177,0,40.028459,-75.057962,83.32606850493846,152.3804555051072,NA
SEPTA21608,Frankford Av & Hellerman St,175,NA,0,175,175,0,40.029373,-75.056148,87.32635659404237,162.09755171728852,NA
SEPTA21687,54th St & Lebanon Av,199,NA,0,199,199,0,39.987468,-75.232514,140,26,NA
SEPTA21693,52nd St & Media St,138,NA,0,138,138,0,39.975812,-75.226746,144,24,NA
SEPTA21695,52nd St & Thompson St - FS,133,NA,0,133,133,0,39.97275,-75.226176,162,29,NA
SEPTA21698,52nd St & Parrish St - FS,141,NA,0,141,141,0,39.966411,-75.224954,142,50,NA
SEPTA21699,52nd St & Race St,158,NA,0,158,158,0,39.963153,-75.224325,102,55,NA
SEPTA21705,52nd St & Pine St,140,NA,0,140,140,0,39.953633,-75.226313,146,259,NA
SEPTA21730,54th St & Kingsessing Av - FS,124,NA,0,124,124,0,39.938739,-75.221727,98,3,NA
SEPTA21731,54th St & Springfield Av,144,NA,0,144,144,0,39.940697,-75.224035,144,9,NA
SEPTA21736,Whitby Av & 53rd St,137,NA,0,137,137,0,39.94581,-75.228756,144,26,NA
SEPTA21737,52nd St & Catherine St - FS,161,NA,0,161,161,0,39.949118,-75.227081,97,8,NA
SEPTA21739,52nd St & Larchwood Av,148,NA,0,148,148,0,39.951929,-75.226483,131,19,NA
SEPTA21740,52nd St & Pine St - FS,143,NA,0,143,143,0,39.953695,-75.226124,150,49,NA
SEPTA21742,52nd St & Locust St - FS,164,NA,0,164,164,0,39.955979,-75.225645,91,35,NA
SEPTA21905,Frankford Av & Lyman Dr - FS,94,NA,0,94,94,0,40.064471,-74.983415,97.28716074946725,3.019430569430569,NA
SEPTA21921,Frankford Av & Placid St - FS,177,NA,0,177,177,0,40.050551,-75.010321,115.97306433246835,23.8876430715827,NA
SEPTA21927,Frankford Av & Blakiston St,149,NA,0,149,149,0,40.044978,-75.017389,90.77359057780885,22.638922055756428,NA
SEPTA21930,Frankford Av & Stanwood St - FS,146,NA,0,146,146,0,40.042929,-75.024141,100.81398244857996,34.24965641084062,NA
SEPTA21931,Frankford Av & Welsh Rd,146,NA,0,146,146,0,40.04239,-75.025575,93.29718223383085,25.679073497881546,NA
SEPTA21932,Frankford Av & Decatur St,146,NA,0,146,146,0,40.040797,-75.029947,101.94731287804042,20.900373572935496,NA
SEPTA21937,Frankford Av & Bleigh Av,130,NA,0,130,130,0,40.037886,-75.037943,163.7249413168531,47.52313814496477,NA
SEPTA21939,Frankford Av & Tyson Av - FS,170,NA,0,170,170,0,40.033665,-75.047011,107.38712640558616,32.6716186247533,NA
SEPTA21940,Frankford Av & Longshore Av - FS,169,NA,0,169,169,0,40.032948,-75.048965,101.52128792260372,45.467233905585296,NA
SEPTA22140,Spruce St & 5th St,156,NA,0,156,156,0,39.945177,-75.149916,118.11666666666666,3.083333333333333,NA
SEPTA22513,Roosevelt Blvd & Welsh Rd,201,NA,0,201,201,0,40.07389,-75.034919,136.79785786885705,584.4558380962656,NA
SEPTA22905,Roosevelt Blvd & Rhawn St,303,NA,0,303,303,0,40.056987,-75.046957,280.042848820151,270.02166552126084,NA
SEPTA23049,Hunting Park Av & Germantown Av,117,NA,0,117,117,0,40.016032,-75.153741,109,235,NA
SEPTA232,Wister St & Chelten Av,104,NA,0,104,104,0,40.051857,-75.157718,116.97503370812197,100.05940644322996,NA
SEPTA23292,Roosevelt Blvd & Langdon St,223,NA,0,223,223,0,40.027823,-75.098525,127,122,NA
SEPTA24090,Frankford Av & Harrison St,146,NA,0,146,146,0,40.019209,-75.081508,79,12,NA
SEPTA24093,Frankford Av & Sellers St,144,NA,0,144,144,0,40.013956,-75.086356,85,77,NA
SEPTA24549,Oregon Av & 23rd St,150,NA,0,150,150,0,39.918639,-75.186386,113.75436507936509,90.1075396825397,NA
SEPTA25157,22nd St & Pennsylvania Av,147,NA,0,147,147,0,39.962651,-75.174745,92.99643332235111,147.45120456769078,NA
SEPTA25203,Hamilton St & 21st St,199,NA,0,199,199,0,39.962452,-75.173329,217.09071561572964,112.20223017558902,NA
SEPTA25288,Ogontz Av & Medary Av,100,NA,0,100,100,0,40.050128,-75.150547,94.27340360995903,37.38182840006241,NA
SEPTA255,Wister St & Chelten Av - FS,109,NA,0,109,109,0,40.051778,-75.157884,111.06013822778529,102.50556143203202,NA
SEPTA26043,5th St & Ruscomb St,120,NA,0,120,120,0,40.027345,-75.132573,83.36680149915445,50.68862950774715,NA
SEPTA261,29th St & Allegheny Av,135,NA,0,135,135,0,40.004746,-75.176983,123.7101962422396,302.3792017322203,NA
SEPTA268,Hunting Park Av & Fox St - FS,133,NA,0,133,133,0,40.00794,-75.171854,162.17218045112782,24.837687020581757,NA
SEPTA2780,19th St & Spring Garden St,112,NA,0,112,112,0,39.963604,-75.16945,84.7973791804428,103.15384818505956,NA
SEPTA2843,22nd St & Venango St,162,NA,0,162,162,0,40.009451,-75.164627,137.34471460987643,59.57604869406624,NA
SEPTA2889,29th St & Clearfield St,162,NA,0,162,162,0,40.003194,-75.177319,104.63247851500878,15.317084220995522,NA
SEPTA2891,29th St & Jefferson St,201,NA,0,201,201,0,39.979017,-75.182578,101.81544624953894,38.97330352901678,NA
SEPTA2895,29th St & Master St,199,NA,0,199,199,0,39.977661,-75.182878,129.94524354528815,40.71492435970412,NA
SEPTA2901,29th St & Oxford St,192,NA,0,192,192,0,39.980445,-75.182266,153.05537865604978,42.456730665199814,NA
SEPTA2903,29th St & Poplar St,190,NA,0,190,190,0,39.973344,-75.183826,138.24756007902903,13.437672661163395,NA
SEPTA2908,29th St & Thompson St,200,NA,0,200,200,0,39.976386,-75.183154,109.04257823219434,23.869239063065766,NA
SEPTA30187,City Av & Bala Av,144,NA,0,144,144,0,39.999922,-75.228958,113,66,NA
SEPTA30272,29th St & York St,96,NA,0,96,96,0,39.992578,-75.179637,91.14575180758858,52.67463721586712,NA
SEPTA30327,19th St & Moravian St - FS,113,NA,0,113,113,0,39.950758,-75.172225,83.94831460654375,72.88904510732587,NA
SEPTA30631,Penn's Landing - 2,323,NA,0,323,323,0,39.949797,-75.140487,126.02101858417771,37.28115129530827,NA
SEPTA30996,Olney Av & Rising Sun Av,148,NA,0,148,148,0,40.034443,-75.115093,207.641090503954,192.06454807103208,NA
SEPTA3108,22nd St & Berks St,112,NA,0,112,112,0,39.983464,-75.170347,93.67435693657367,75.20326154040502,NA
SEPTA3109,22nd St & Cambria St,114,NA,0,114,114,0,39.99862,-75.16683,80.68346261577616,193.99099799808633,NA
SEPTA3112,22nd St & Cecil B Moore Av,111,NA,0,111,111,0,39.98044,-75.170984,108.27156555422025,171.50784200509528,NA
SEPTA3146,22nd St & Norris St,106,NA,0,106,106,0,39.984954,-75.170011,110.81751287957385,87.34682379169486,NA
SEPTA3168,22nd St & Susquehanna Av,111,NA,0,111,111,0,39.988032,-75.169362,102.61479631513852,88.6659544155368,NA
SEPTA3171,22nd St & Tioga St,114,NA,0,114,114,0,40.007934,-75.164976,83.66837653399189,10.433954178781304,NA
SEPTA3196,29th St & Diamond St,204,NA,0,204,204,0,39.987912,-75.180645,86.04593300286672,47.85672964576866,NA
SEPTA3210,Market St & 2nd St - 1 MBNS,206,NA,0,206,206,0,39.950017,-75.143237,184,20,NA
SEPTA357,20th St & Washington Av,122,NA,0,122,122,0,39.938941,-75.17627,91.60893359346014,75.03927493453992,NA
SEPTA359,Market St & 6th St,215,NA,0,215,215,0,39.950809,-75.150237,228.58412217151803,24.200711350643985,NA
SEPTA432,Walnut St & 30th St - FS,224,NA,0,224,224,0,39.95188,-75.184278,118,169,NA
SEPTA4342,Allegheny Av & 2nd St,101,NA,0,101,101,0,39.999108,-75.133127,101.86002612352038,150.6877064027615,NA
SEPTA4354,Allegheny Av & A St,101,NA,0,101,101,0,39.998344,-75.127245,83.19640192843998,121.21748725678135,NA
SEPTA4459,Arch St & 10th St,153,NA,0,153,153,0,39.953598,-75.156166,173.04234297888453,30.62829080679632,NA
SEPTA4467,Arch St & 3rd St,147,NA,0,147,147,0,39.952208,-75.145082,139.5638636286496,2.5329615098441947,NA
SEPTA4474,Arch St & Broad St,98,NA,0,98,98,0,39.954416,-75.16287,78.10532481325198,44.048359356713696,NA
SEPTA5229,Broad St & Locust St,197,NA,0,197,197,0,39.948082,-75.164453,141.99295565545566,80.43447802197802,NA
SEPTA5369,Brown St & 23rd St,142,NA,0,142,142,0,39.969685,-75.17498,96.58193553785543,16.121749529815837,NA
SEPTA567,41st St & Lancaster Av,105,NA,0,105,105,0,39.964941,-75.205493,119,207,NA
SEPTA593,Penn's Landing - 1,844,NA,0,844,844,0,39.948716,-75.140231,426.04379533221055,308.7285184122568,NA
SEPTA595,20th St & Girard Av - MBFS,109,NA,0,109,109,0,39.972921,-75.168873,96.94330724601672,60.90692858744157,NA
SEPTA597,22nd St & Allegheny Av,109,NA,0,109,109,0,40.00317,-75.165844,94.7706015009227,248.90391617241414,NA
SEPTA6232,City Av & Bryn Mawr Av,157,NA,0,157,157,0,39.999024,-75.231017,106,70,NA
SEPTA6239,City Av & 53rd St,157,NA,0,157,157,0,39.997449,-75.234365,116,54,NA
SEPTA638,5th St & Market St - FS,200,NA,0,200,200,0,39.951047,-75.14876,117,135,NA
SEPTA6770,Diamond St & 21st St,99,NA,0,99,99,0,39.986253,-75.16788,136.50964190402016,222.55129384297715,NA
SEPTA746,29th St & Dauphin St,95,NA,0,95,95,0,39.991088,-75.179961,106.85741370336603,51.53506870534263,NA
SEPTA751,29th St & Girard Av,140,NA,0,140,140,0,39.974423,-75.183433,185.9389679363329,156.31629217139908,NA
SEPTA781,52nd St & Girard Av,142,NA,0,142,142,0,39.971339,-75.225743,159,478,NA
SEPTA959,Frankford Av & Robbins Av,161,NA,0,161,161,0,40.027885,-75.060069,171.68252287358322,75.13823888100204,NA
SEPTA960,Frankford Av & Robbins Av,175,NA,0,175,175,0,40.02776,-75.060188,84.74506221332848,141.6593961293265,NA
SEPTA992,Frankford Av & Wellington St,168,NA,0,168,168,0,40.036043,-75.042423,127.52756075623724,52.28719014903227,NA
